{
    "type": "FeatureCollection",
    "features": [
      {
        "type": "Feature",
        "properties": {
          "name": "Mai Dịch - VD3"
        },
        "geometry": {
          "coordinates": [
            105.78055769536257,
            21.036685465730187
          ],
          "type": "Point"
        },
        "id": 0
      },
      {
        "type": "Feature",
        "properties": {
          "name": "Nguyễn Chí Thanh - Láng"
        },
        "geometry": {
          "coordinates": [
            105.80022690318941,
            21.02259561221632
          ],
          "type": "Point"
        },
        "id": 1
      },
      {
        "type": "Feature",
        "properties": {
          "name": "Ngã Tư Sở"
        },
        "geometry": {
          "coordinates": [
            105.82043043847642,
            21.003204344539938
          ],
          "type": "Point"
        },
        "id": 2
      },
      {
        "type": "Feature",
        "properties": {
          "name": "Vành Đai 2 - Vĩnh Tuy"
        },
        "geometry": {
          "coordinates": [
            105.86931800629662,
            20.99880286354609
          ],
          "type": "Point"
        },
        "id": 3
      },
      {
        "type": "Feature",
        "properties": {
          "name": "Cầu 361 - Nguyễn Khang"
        },
        "geometry": {
          "coordinates": [
            105.80104796524705,
            21.02002320492697
          ],
          "type": "Point"
        },
        "id": 4
      },
      {
        "type": "Feature",
        "properties": {
          "name": "Giải Phóng - Vành Đai 3"
        },
        "geometry": {
          "coordinates": [
            105.84191316292674,
            20.96580933509871
          ],
          "type": "Point"
        },
        "id": 5
      },
      {
        "type": "Feature",
        "properties": {
          "name": "Pháp Vân - Cầu Giẽ - Vành Đai 3"
        },
        "geometry": {
          "coordinates": [
            105.84917697762774,
            20.96575166776813
          ],
          "type": "Point"
        },
        "id": 6
      },
      {
        "type": "Feature",
        "properties": {
          "name": "Cầu Giấy - Trần Đăng Ninh"
        },
        "geometry": {
          "coordinates": [
            105.79351945281161,
            21.035236774914836
          ],
          "type": "Point"
        },
        "id": 7
      },
      {
        "type": "Feature",
        "properties": {
          "name": "Nguyễn Chánh - Dương Đình Nghệ"
        },
        "geometry": {
          "coordinates": [
            105.78578962701204,
            21.020093565441158
          ],
          "type": "Point"
        },
        "id": 8
      },
      {
        "type": "Feature",
        "properties": {
          "name": "Lưu Khánh Đàm - Mai Chí Thọ - Phúc Lợi"
        },
        "geometry": {
          "coordinates": [
            105.91357922929632,
            21.059073584281435
          ],
          "type": "Point"
        },
        "id": 9
      },
      {
        "type": "Feature",
        "properties": {
          "name": "Lê Trọng Tấn - Geleximco"
        },
        "geometry": {
          "coordinates": [
            105.73203891479386,
            21.00560292843099
          ],
          "type": "Point"
        },
        "id": 10
      },
      {
        "type": "Feature",
        "properties": {
          "name": "Nguyễn Hữu Thọ - Linh Đường"
        },
        "geometry": {
          "coordinates": [
            105.82568730468711,
            20.96485293689075
          ],
          "type": "Point"
        },
        "id": 11
      },
      {
        "type": "Feature",
        "properties": {
          "name": "Trần Duy Hưng - Nguyễn Chánh - Hoàng Minh Giám"
        },
        "geometry": {
          "coordinates": [
            105.79576002610764,
            21.00777025078834
          ],
          "type": "Point"
        },
        "id": 12
      },
      {
        "type": "Feature",
        "properties": {
          "name": "Vũ Trọng Khánh - Tố Hữu"
        },
        "geometry": {
          "coordinates": [
            105.77872816139131,
            20.98750786198849
          ],
          "type": "Point"
        },
        "id": 13
      },
      {
        "type": "Feature",
        "properties": {
          "name": "Ngã Tư Vọng"
        },
        "geometry": {
          "coordinates": [
            105.84122792423568,
            20.99782596700362
          ],
          "type": "Point"
        },
        "id": 14
      },
      {
        "type": "Feature",
        "properties": {
          "name": "Phạm Hùng - Vành Đai 3"
        },
        "geometry": {
          "coordinates": [
            105.79222393302729,
            21.005378995667755
          ],
          "type": "Point"
        },
        "id": 15
      },
      {
        "type": "Feature",
        "properties": {
          "name": "Bạch Mai - Minh Khai - Trương Định"
        },
        "geometry": {
          "coordinates": [
            105.8499516249347,
            20.99598673354363
          ],
          "type": "Point"
        },
        "id": 16
      },
      {
        "type": "Feature",
        "properties": {
          "name": "Nguyễn Xiển - Vành Đai 3"
        },
        "geometry": {
          "coordinates": [
            105.8032204616282,
            20.991513451659486
          ],
          "type": "Point"
        },
        "id": 17
      },
      {
        "type": "Feature",
        "properties": {
          "name": "Chùa Bộc - Thái Hà"
        },
        "geometry": {
          "coordinates": [
            105.82435454973904,
            21.009312784077323
          ],
          "type": "Point"
        },
        "id": 18
      },
      {
        "type": "Feature",
        "properties": {
          "name": "La Thành - Giảng Võ"
        },
        "geometry": {
          "coordinates": [
            105.81985560529978,
            21.02339793345469
          ],
          "type": "Point"
        },
        "id": 19
      },
      {
        "type": "Feature",
        "properties": {
          "name": "La Thành - Nguyễn Chí Thanh"
        },
        "geometry": {
          "coordinates": [
            105.81127499485444,
            21.025000993320887
          ],
          "type": "Point"
        },
        "id": 20
      },
      {
        "type": "Feature",
        "properties": {
          "name": "Cầu Thăng Long - Mai Dịch"
        },
        "geometry": {
          "coordinates": [
            105.78603510981418,
            21.091015343383106
          ],
          "type": "Point"
        },
        "id": 21
      },
      {
        "type": "Feature",
        "properties": {
          "name": "Lê Đức Thọ - Hồ Tùng Mậu"
        },
        "geometry": {
          "coordinates": [
            105.77203032131905,
            21.038297978161964
          ],
          "type": "Point"
        },
        "id": 22
      },
      {
        "type": "Feature",
        "properties": {
          "name": "Lê Đức Thọ - Trần Hữu Dực"
        },
        "geometry": {
          "coordinates": [
            105.76833812966083,
            21.027909991116104
          ],
          "type": "Point"
        },
        "id": 23
      },
      {
        "type": "Feature",
        "properties": {
          "name": "Láng - Nguyễn Chí Thanh"
        },
        "geometry": {
          "coordinates": [
            105.8050081462697,
            21.015591526778437
          ],
          "type": "Point"
        },
        "id": 24
      },
      {
        "type": "Feature",
        "properties": {
          "name": "Tố Hữu - Khuất Duy Tiến"
        },
        "geometry": {
          "coordinates": [
            105.79692721997475,
            20.999453480867615
          ],
          "type": "Point"
        },
        "id": 25
      },
      {
        "type": "Feature",
        "properties": {
          "name": "Trần Khát Chân - Kim Ngưu"
        },
        "geometry": {
          "coordinates": [
            105.8606716474045,
            21.008437525244375
          ],
          "type": "Point"
        },
        "id": 26
      },
      {
        "type": "Feature",
        "properties": {
          "name": "Cầu Thanh Trì - Lĩnh Nam - Vành Đai 3"
        },
        "geometry": {
          "coordinates": [
            105.88906296950108,
            20.979474276286865
          ],
          "type": "Point"
        },
        "id": 27
      },
      {
        "type": "Feature",
        "properties": {
          "name": "Hoàng Minh Giám - Lê Văn Lương"
        },
        "geometry": {
          "coordinates": [
            105.80031316783607,
            21.002277654860137
          ],
          "type": "Point"
        },
        "id": 28
      },
      {
        "type": "Feature",
        "properties": {
          "name": "Tố Hữu - Trung Văn"
        },
        "geometry": {
          "coordinates": [
            105.78310339787032,
            20.990596317403487
          ],
          "type": "Point"
        },
        "id": 29
      },
      {
        "type": "Feature",
        "properties": {
          "name": "Đại Cồ Việt - Phố Huế"
        },
        "geometry": {
          "coordinates": [
            105.85144563361723,
            21.00872338047617
          ],
          "type": "Point"
        },
        "id": 30
      },
      {
        "type": "Feature",
        "properties": {
          "name": "Võ Chí Công - Vành Đai 2"
        },
        "geometry": {
          "coordinates": [
            105.80541262285544,
            21.047509647071962
          ],
          "type": "Point"
        },
        "id": 31
      },
      {
        "type": "Feature",
        "properties": {
          "name ": "Liễu Giai - Đào Tấn"
        },
        "geometry": {
          "coordinates": [
            105.81324999988743,
            21.031323689986863
          ],
          "type": "Point"
        },
        "id": 32
      },
      {
        "type": "Feature",
        "properties": {
          "name": "Nguyễn Xiển - Xa La"
        },
        "geometry": {
          "coordinates": [
            105.81236355186434,
            20.979023814976998
          ],
          "type": "Point"
        },
        "id": 33
      },
      {
        "type": "Feature",
        "properties": {
          "name": "Nguyễn Hữu Thọ - Linh Đàm"
        },
        "geometry": {
          "coordinates": [
            105.82883659755743,
            20.969045507899494
          ],
          "type": "Point"
        },
        "id": 34
      },
      {
        "type": "Feature",
        "properties": {
          "name": "Giải Phóng - Tân Mai"
        },
        "geometry": {
          "coordinates": [
            105.84107462484587,
            20.983717811641355
          ],
          "type": "Point"
        },
        "id": 35
      },
      {
        "type": "Feature",
        "properties": {
          "name": "Âu Cơ - Nghi Tàm"
        },
        "geometry": {
          "coordinates": [
            105.83492519179805,
            21.058349585472953
          ],
          "type": "Point"
        },
        "id": 36
      },
      {
        "type": "Feature",
        "properties": {
          "name": "Kim Mã - Nguyễn Chí Thanh"
        },
        "geometry": {
          "coordinates": [
            105.8129217512971,
            21.030191398739703
          ],
          "type": "Point"
        },
        "id": 37
      },
      {
        "type": "Feature",
        "properties": {
          "name": "Điện Biên Phủ - Trần Phú"
        },
        "geometry": {
          "coordinates": [
            105.84103487507042,
            21.03068576913755
          ],
          "type": "Point"
        },
        "id": 38
      },
      {
        "type": "Feature",
        "properties": {
          "name": "Nút giao Cổ Linh"
        },
        "geometry": {
          "coordinates": [
            105.89658771084629,
            21.027018632900763
          ],
          "type": "Point"
        },
        "id": 39
      },
      {
        "type": "Feature",
        "properties": {
          "name": "Cầu Chương Dương - Đê Nguyễn Khoái"
        },
        "geometry": {
          "coordinates": [
            105.85475272332405,
            21.03544724851622
          ],
          "type": "Point"
        },
        "id": 40
      },
      {
        "type": "Feature",
        "properties": {
          "name": "Cầu Chương Dương - Long Biên"
        },
        "geometry": {
          "coordinates": [
            105.86585732227229,
            21.03977144224065
          ],
          "type": "Point"
        },
        "id": 41
      },
      {
        "type": "Feature",
        "properties": {
          "name": "Cầu Định Công - Vành Đai 2"
        },
        "geometry": {
          "coordinates": [
            105.83447802191421,
            20.983432434042257
          ],
          "type": "Point"
        },
        "id": 42
      },
      {
        "type": "Feature",
        "properties": {
          "name": "La Thành - Hào Nam"
        },
        "geometry": {
          "coordinates": [
            105.82541163256388,
            21.02141234902075
          ],
          "type": "Point"
        },
        "id": 43
      },
      {
        "type": "Feature",
        "properties": {
          "name": "Nguyễn Khoái - Cầu Vĩnh Tuy"
        },
        "geometry": {
          "coordinates": [
            105.87334575637846,
            21.002601716223438
          ],
          "type": "Point"
        },
        "id": 44
      },
      {
        "type": "Feature",
        "properties": {
          "name": "Nguyễn Khoái - Dốc Vĩnh Hưng"
        },
        "geometry": {
          "coordinates": [
            105.87939646755916,
            21.000648480901873
          ],
          "type": "Point"
        },
        "id": 45
      }
    ]
  }