{
"type": "FeatureCollection",
"name": "line_6_stations",
"features": [
{ "type": "Feature", "properties": { "x": 11777827.99, "y": 2417313.03, "spatialReferenceWkid": 102100, "order": 1, "station": "Noi Bai", "line": "6", "long": 105.802029, "lat": 21.213153, "objectId": 133, "GlobalID": "Noi Bai" }, "geometry": { "type": "Point", "coordinates": [ 105.802029, 21.213153 ] } },
{ "type": "Feature", "properties": { "x": 11775241.71, "y": 2417219.89, "spatialReferenceWkid": 102100, "order": 2, "station": "Phu Cuong", "line": "6", "long": 105.778796, "lat": 21.212373, "objectId": 134, "GlobalID": "Phu Cuong" }, "geometry": { "type": "Point", "coordinates": [ 105.778796, 21.212373 ] } },
{ "type": "Feature", "properties": { "x": 11776563.29, "y": 2412642.42, "spatialReferenceWkid": 102100, "order": 3, "station": "Nam Hong", "line": "6", "long": 105.790668, "lat": 21.174034, "objectId": 135, "GlobalID": "Nam Hong" }, "geometry": { "type": "Point", "coordinates": [ 105.790668, 21.174034 ] } },
{ "type": "Feature", "properties": { "x": 11776446.07, "y": 2408764.7, "spatialReferenceWkid": 102100, "order": 4, "station": "Kim No", "line": "6", "long": 105.789615, "lat": 21.141548, "objectId": 136, "GlobalID": "Kim No" }, "geometry": { "type": "Point", "coordinates": [ 105.789615, 21.141548 ] } },
{ "type": "Feature", "properties": { "x": 11776250.04, "y": 2406970.2, "spatialReferenceWkid": 102100, "order": 5, "station": "Hai Boi", "line": "6", "long": 105.787854, "lat": 21.126512, "objectId": 137, "GlobalID": "Hai Boi" }, "geometry": { "type": "Point", "coordinates": [ 105.787854, 21.126512 ] } },
{ "type": "Feature", "properties": { "x": 11775961.72, "y": 2401941.54, "spatialReferenceWkid": 102100, "order": 6, "station": "Nam Thang Long", "line": "6", "long": 105.785264, "lat": 21.084369, "objectId": 138, "GlobalID": "Nam Thang Long" }, "geometry": { "type": "Point", "coordinates": [ 105.785264, 21.084369 ] } },
{ "type": "Feature", "properties": { "x": 11772612.45, "y": 2397118.14, "spatialReferenceWkid": 102100, "order": 7, "station": "Phu Dien", "line": "6", "long": 105.755177, "lat": 21.043935, "objectId": 139, "GlobalID": "Phu Dien" }, "geometry": { "type": "Point", "coordinates": [ 105.755177, 21.043935 ] } },
{ "type": "Feature", "properties": { "x": 11772287.62, "y": 2395999.5, "spatialReferenceWkid": 102100, "order": 8, "station": "Xuan Phuong", "line": "6", "long": 105.752259, "lat": 21.034556, "objectId": 140, "GlobalID": "Xuan Phuong" }, "geometry": { "type": "Point", "coordinates": [ 105.752259, 21.034556 ] } },
{ "type": "Feature", "properties": { "x": 11771037.39, "y": 2393280.54, "spatialReferenceWkid": 102100, "order": 9, "station": "Tay Mo", "line": "6", "long": 105.741028, "lat": 21.011757, "objectId": 141, "GlobalID": "Tay Mo" }, "geometry": { "type": "Point", "coordinates": [ 105.741028, 21.011757 ] } },
{ "type": "Feature", "properties": { "x": 11770338.2, "y": 2391389.83, "spatialReferenceWkid": 102100, "order": 10, "station": "Duong Noi", "line": "6", "long": 105.734747, "lat": 20.995901, "objectId": 142, "GlobalID": "Duong Noi" }, "geometry": { "type": "Point", "coordinates": [ 105.734747, 20.995901 ] } },
{ "type": "Feature", "properties": { "x": 11771384.04, "y": 2387175.58, "spatialReferenceWkid": 102100, "order": 11, "station": "Le Van Luong", "line": "6", "long": 105.744142, "lat": 20.960553, "objectId": 143, "GlobalID": "Le Van Luong" }, "geometry": { "type": "Point", "coordinates": [ 105.744142, 20.960553 ] } },
{ "type": "Feature", "properties": { "x": 11774071.85, "y": 2385926.8, "spatialReferenceWkid": 102100, "order": 12, "station": "Ha Dong", "line": "6", "long": 105.768287, "lat": 20.950077, "objectId": 144, "GlobalID": "Ha Dong" }, "geometry": { "type": "Point", "coordinates": [ 105.768287, 20.950077 ] } },
{ "type": "Feature", "properties": { "x": 11775250.95, "y": 2385557.88, "spatialReferenceWkid": 102100, "order": 13, "station": "Phu Luong", "line": "6", "long": 105.778879, "lat": 20.946982, "objectId": 145, "GlobalID": "Phu Luong" }, "geometry": { "type": "Point", "coordinates": [ 105.778879, 20.946982 ] } },
{ "type": "Feature", "properties": { "x": 11779330.03, "y": 2383716.98, "spatialReferenceWkid": 102100, "order": 14, "station": "Dai Ang", "line": "6", "long": 105.815522, "lat": 20.931537, "objectId": 146, "GlobalID": "Dai Ang" }, "geometry": { "type": "Point", "coordinates": [ 105.815522, 20.931537 ] } },
{ "type": "Feature", "properties": { "x": 11781535.6, "y": 2383478.37, "spatialReferenceWkid": 102100, "order": 15, "station": "Vinh Quynh", "line": "6", "long": 105.835335, "lat": 20.929535, "objectId": 147, "GlobalID": "Vinh Quynh" }, "geometry": { "type": "Point", "coordinates": [ 105.835335, 20.929535 ] } },
{ "type": "Feature", "properties": { "x": 11783275.52, "y": 2382855.29, "spatialReferenceWkid": 102100, "order": 16, "station": "Ngoc Hoi", "line": "6", "long": 105.850965, "lat": 20.924307, "objectId": 148, "GlobalID": "Ngoc Hoi" }, "geometry": { "type": "Point", "coordinates": [ 105.850965, 20.924307 ] } }
]
}
