{
"type": "FeatureCollection",
"name": "line_7_stations",
"features": [
{ "type": "Feature", "properties": { "x": 11773128.53, "y": 2412024.77, "spatialReferenceWkid": 102100, "order": 1, "station": "Me Linh", "line": "7", "long": 105.759813, "lat": 21.16886, "objectId": 149, "GlobalID": "Me Linh" }, "geometry": { "type": "Point", "coordinates": [ 105.759813, 21.16886 ] } },
{ "type": "Feature", "properties": { "x": 11773251.76, "y": 2410842.04, "spatialReferenceWkid": 102100, "order": 2, "station": "Tien Phong", "line": "7", "long": 105.76092, "lat": 21.158952, "objectId": 150, "GlobalID": "Tien Phong" }, "geometry": { "type": "Point", "coordinates": [ 105.76092, 21.158952 ] } },
{ "type": "Feature", "properties": { "x": 11773510.13, "y": 2406396.66, "spatialReferenceWkid": 102100, "order": 3, "station": "Dai Mach", "line": "7", "long": 105.763241, "lat": 21.121706, "objectId": 151, "GlobalID": "Dai Mach" }, "geometry": { "type": "Point", "coordinates": [ 105.763241, 21.121706 ] } },
{ "type": "Feature", "properties": { "x": 11770877.98, "y": 2402300.66, "spatialReferenceWkid": 102100, "order": 4, "station": "Tay Tuu", "line": "7", "long": 105.739596, "lat": 21.087379, "objectId": 152, "GlobalID": "Tay Tuu" }, "geometry": { "type": "Point", "coordinates": [ 105.739596, 21.087379 ] } },
{ "type": "Feature", "properties": { "x": 11770065.02, "y": 2398625.24, "spatialReferenceWkid": 102100, "order": 5, "station": "Nhon", "line": "7", "long": 105.732293, "lat": 21.05657, "objectId": 153, "GlobalID": "Nhon" }, "geometry": { "type": "Point", "coordinates": [ 105.732293, 21.05657 ] } },
{ "type": "Feature", "properties": { "x": 11769112.79, "y": 2395892.99, "spatialReferenceWkid": 102100, "order": 6, "station": "Van Canh", "line": "7", "long": 105.723739, "lat": 21.033663, "objectId": 154, "GlobalID": "Van Canh" }, "geometry": { "type": "Point", "coordinates": [ 105.723739, 21.033663 ] } },
{ "type": "Feature", "properties": { "x": 11769873.99, "y": 2393179.77, "spatialReferenceWkid": 102100, "order": 7, "station": "Thang Long Blvd", "line": "7", "long": 105.730577, "lat": 21.010912, "objectId": 155, "GlobalID": "Thang Long Blvd" }, "geometry": { "type": "Point", "coordinates": [ 105.730577, 21.010912 ] } },
{ "type": "Feature", "properties": { "x": 11770344.32, "y": 2391409.03, "spatialReferenceWkid": 102100, "order": 8, "station": "Duong Noi", "line": "7", "long": 105.734802, "lat": 20.996062, "objectId": 156, "GlobalID": "Duong Noi" }, "geometry": { "type": "Point", "coordinates": [ 105.734802, 20.996062 ] } },
{ "type": "Feature", "properties": { "x": 11770905.81, "y": 2390102.85, "spatialReferenceWkid": 102100, "order": 9, "station": "La Phu", "line": "7", "long": 105.739846, "lat": 20.985107, "objectId": 157, "GlobalID": "La Phu" }, "geometry": { "type": "Point", "coordinates": [ 105.739846, 20.985107 ] } },
{ "type": "Feature", "properties": { "x": 11772428.66, "y": 2388138.56, "spatialReferenceWkid": 102100, "order": 10, "station": "Van Phu", "line": "7", "long": 105.753526, "lat": 20.968631, "objectId": 158, "GlobalID": "Van Phu" }, "geometry": { "type": "Point", "coordinates": [ 105.753526, 20.968631 ] } },
{ "type": "Feature", "properties": { "x": 11774070.85, "y": 2385927.51, "spatialReferenceWkid": 102100, "order": 11, "station": "Ha Dong", "line": "7", "long": 105.768278, "lat": 20.950083, "objectId": 159, "GlobalID": "Ha Dong" }, "geometry": { "type": "Point", "coordinates": [ 105.768278, 20.950083 ] } }
]
}
