{
"type": "FeatureCollection",
"name": "line_1_stations",
"features": [
{ "type": "Feature", "properties": { "x": 11792195.75, "y": 2403920.36, "spatialReferenceWkid": 102100, "order": 1, "station": "Yen Thuong", "line": "1", "long": 105.9310968, "lat": 21.10095404, "objectId": 47, "GlobalID": "Yen Thuong" }, "geometry": { "type": "Point", "coordinates": [ 105.9310968, 21.10095404 ] } },
{ "type": "Feature", "properties": { "x": 11790618.73, "y": 2402171.31, "spatialReferenceWkid": 102100, "order": 2, "station": "Yen Vien", "line": "1", "long": 105.9169301, "lat": 21.08629486, "objectId": 48, "GlobalID": "Yen Vien" }, "geometry": { "type": "Point", "coordinates": [ 105.9169301, 21.08629486 ] } },
{ "type": "Feature", "properties": { "x": 11789491.58, "y": 2400897.99, "spatialReferenceWkid": 102100, "order": 3, "station": "Cau Duong", "line": "1", "long": 105.9068048, "lat": 21.07562197, "objectId": 49, "GlobalID": "Cau Duong" }, "geometry": { "type": "Point", "coordinates": [ 105.9068048, 21.07562197 ] } },
{ "type": "Feature", "properties": { "x": 11788534.3, "y": 2399857.01, "spatialReferenceWkid": 102100, "order": 4, "station": "Duc Giang", "line": "1", "long": 105.8982054, "lat": 21.06689597, "objectId": 50, "GlobalID": "Duc Giang" }, "geometry": { "type": "Point", "coordinates": [ 105.8982054, 21.06689597 ] } },
{ "type": "Feature", "properties": { "x": 11786524.43, "y": 2398127.1, "spatialReferenceWkid": 102100, "order": 5, "station": "Long Bien Bac", "line": "1", "long": 105.8801504, "lat": 21.05239389, "objectId": 51, "GlobalID": "Long Bien Bac" }, "geometry": { "type": "Point", "coordinates": [ 105.8801504, 21.05239389 ] } },
{ "type": "Feature", "properties": { "x": 11784972.78, "y": 2397393.2, "spatialReferenceWkid": 102100, "order": 5, "station": "Long Bien Nam", "line": "1", "long": 105.8662117, "lat": 21.04624111, "objectId": 52, "GlobalID": "Long Bien Nam" }, "geometry": { "type": "Point", "coordinates": [ 105.8662117, 21.04624111 ] } },
{ "type": "Feature", "properties": { "x": 11783171.42, "y": 2396630.51, "spatialReferenceWkid": 102100, "order": 7, "station": "Phung Hung", "line": "1", "long": 105.8500298, "lat": 21.03984669, "objectId": 53, "GlobalID": "Phung Hung" }, "geometry": { "type": "Point", "coordinates": [ 105.8500298, 21.03984669 ] } },
{ "type": "Feature", "properties": { "x": 11782154.31, "y": 2394768.35, "spatialReferenceWkid": 102100, "order": 8, "station": "Ga Ha Noi", "line": "1", "long": 105.840893, "lat": 21.02423298, "objectId": 54, "GlobalID": "Ga Ha Noi" }, "geometry": { "type": "Point", "coordinates": [ 105.840893, 21.02423298 ] } },
{ "type": "Feature", "properties": { "x": 11782195.45, "y": 2393155.33, "spatialReferenceWkid": 102100, "order": 9, "station": "Thong Nhat Park", "line": "1", "long": 105.8412625, "lat": 21.01070701, "objectId": 55, "GlobalID": "Thong Nhat Park" }, "geometry": { "type": "Point", "coordinates": [ 105.8412625, 21.01070701 ] } },
{ "type": "Feature", "properties": { "x": 11782180.96, "y": 2391962.39, "spatialReferenceWkid": 102100, "order": 10, "station": "Bach Mai", "line": "1", "long": 105.8411324, "lat": 21.00070277, "objectId": 56, "GlobalID": "Bach Mai" }, "geometry": { "type": "Point", "coordinates": [ 105.8411324, 21.00070277 ] } },
{ "type": "Feature", "properties": { "x": 11782165.87, "y": 2390995.14, "spatialReferenceWkid": 102100, "order": 11, "station": "Phuong Liet", "line": "1", "long": 105.8409968, "lat": 20.99259075, "objectId": 57, "GlobalID": "Phuong Liet" }, "geometry": { "type": "Point", "coordinates": [ 105.8409968, 20.99259075 ] } },
{ "type": "Feature", "properties": { "x": 11782143.83, "y": 2389373.67, "spatialReferenceWkid": 102100, "order": 12, "station": "Giap Bat", "line": "1", "long": 105.8407988, "lat": 20.97899105, "objectId": 58, "GlobalID": "Giap Bat" }, "geometry": { "type": "Point", "coordinates": [ 105.8407988, 20.97899105 ] } },
{ "type": "Feature", "properties": { "x": 11782249.86, "y": 2387793.08, "spatialReferenceWkid": 102100, "order": 13, "station": "Hoang Liet", "line": "1", "long": 105.8417513, "lat": 20.96573297, "objectId": 59, "GlobalID": "Hoang Liet" }, "geometry": { "type": "Point", "coordinates": [ 105.8417513, 20.96573297 ] } },
{ "type": "Feature", "properties": { "x": 11782489.59, "y": 2385193.86, "spatialReferenceWkid": 102100, "order": 14, "station": "Van Dien", "line": "1", "long": 105.8439048, "lat": 20.94392804, "objectId": 60, "GlobalID": "Van Dien" }, "geometry": { "type": "Point", "coordinates": [ 105.8439048, 20.94392804 ] } },
{ "type": "Feature", "properties": { "x": 11783400.54, "y": 2382610.14, "spatialReferenceWkid": 102100, "order": 15, "station": "Ngoc Hoi", "line": "1", "long": 105.852088, "lat": 20.92224998, "objectId": 61, "GlobalID": "Ngoc Hoi" }, "geometry": { "type": "Point", "coordinates": [ 105.852088, 20.92224998 ] } },
{ "type": "Feature", "properties": { "x": 11787877.89, "y": 2397712.98, "spatialReferenceWkid": 102100, "order": 16, "station": "BigC Long Bien", "line": "1", "long": 105.8923088, "lat": 21.04892209, "objectId": 62, "GlobalID": "BigC Long Bien" }, "geometry": { "type": "Point", "coordinates": [ 105.8923088, 21.04892209 ] } },
{ "type": "Feature", "properties": { "x": 11788561.91, "y": 2396419.86, "spatialReferenceWkid": 102100, "order": 17, "station": "Phuc Dong", "line": "1", "long": 105.8984534, "lat": 21.03808047, "objectId": 63, "GlobalID": "Phuc Dong" }, "geometry": { "type": "Point", "coordinates": [ 105.8984534, 21.03808047 ] } },
{ "type": "Feature", "properties": { "x": 11788961.22, "y": 2396102.65, "spatialReferenceWkid": 102100, "order": 18, "station": "Sai Dong", "line": "1", "long": 105.9020405, "lat": 21.03542089, "objectId": 64, "GlobalID": "Sai Dong" }, "geometry": { "type": "Point", "coordinates": [ 105.9020405, 21.03542089 ] } },
{ "type": "Feature", "properties": { "x": 11790249.39, "y": 2395456.1, "spatialReferenceWkid": 102100, "order": 19, "station": "Thach Ban", "line": "1", "long": 105.9136123, "lat": 21.02999977, "objectId": 65, "GlobalID": "Thach Ban" }, "geometry": { "type": "Point", "coordinates": [ 105.9136123, 21.02999977 ] } },
{ "type": "Feature", "properties": { "x": 11792991.12, "y": 2394342.92, "spatialReferenceWkid": 102100, "order": 20, "station": "Co Bi", "line": "1", "long": 105.9382417, "lat": 21.02066571, "objectId": 66, "GlobalID": "Co Bi" }, "geometry": { "type": "Point", "coordinates": [ 105.9382417, 21.02066571 ] } },
{ "type": "Feature", "properties": { "x": 11794655.0, "y": 2393084.76, "spatialReferenceWkid": 102100, "order": 21, "station": "Trau Quy", "line": "1", "long": 105.9531886, "lat": 21.01011523, "objectId": 67, "GlobalID": "Trau Quy" }, "geometry": { "type": "Point", "coordinates": [ 105.9531886, 21.01011523 ] } },
{ "type": "Feature", "properties": { "x": 11795645.39, "y": 2392292.18, "spatialReferenceWkid": 102100, "order": 23, "station": "Duong Xa", "line": "1", "long": 105.9620854, "lat": 21.00346851, "objectId": 68, "GlobalID": "Duong Xa" }, "geometry": { "type": "Point", "coordinates": [ 105.9620854, 21.00346851 ] } }
]
}
