{
"type": "FeatureCollection",
"name": "line_2A_stations",
"features": [
{ "type": "Feature", "properties": { "x": 11780645.16, "y": 2395257.55, "spatialReferenceWkid": 102100, "order": 1, "station": "Cat Linh", "line": "2A", "long": 105.827336, "lat": 21.02833496, "objectId": 0, "GlobalID": "Cat Linh" }, "geometry": { "type": "Point", "coordinates": [ 105.827336, 21.02833496 ] } },
{ "type": "Feature", "properties": { "x": 11780422.18, "y": 2394284.4, "spatialReferenceWkid": 102100, "order": 2, "station": "La Thanh", "line": "2A", "long": 105.825333, "lat": 21.02017497, "objectId": 1, "GlobalID": "La Thanh" }, "geometry": { "type": "Point", "coordinates": [ 105.825333, 21.02017497 ] } },
{ "type": "Feature", "properties": { "x": 11779764.4, "y": 2393619.33, "spatialReferenceWkid": 102100, "order": 3, "station": "Thai Ha", "line": "2A", "long": 105.819424, "lat": 21.01459801, "objectId": 2, "GlobalID": "Thai Ha" }, "geometry": { "type": "Point", "coordinates": [ 105.819424, 21.01459801 ] } },
{ "type": "Feature", "properties": { "x": 11779385.69, "y": 2392654.73, "spatialReferenceWkid": 102100, "order": 5, "station": "Lang", "line": "2A", "long": 105.816022, "lat": 21.00650897, "objectId": 3, "GlobalID": "Lang" }, "geometry": { "type": "Point", "coordinates": [ 105.816022, 21.00650897 ] } },
{ "type": "Feature", "properties": { "x": 11778971.47, "y": 2391609.82, "spatialReferenceWkid": 102100, "order": 6, "station": "Thuong Dinh", "line": "2A", "long": 105.812301, "lat": 20.99774596, "objectId": 4, "GlobalID": "Thuong Dinh" }, "geometry": { "type": "Point", "coordinates": [ 105.812301, 20.99774596 ] } },
{ "type": "Feature", "properties": { "x": 11778037.39, "y": 2390921.0, "spatialReferenceWkid": 102100, "order": 7, "station": "Vanh Dai 3", "line": "2A", "long": 105.80391, "lat": 20.99196898, "objectId": 5, "GlobalID": "Vanh Dai 3" }, "geometry": { "type": "Point", "coordinates": [ 105.80391, 20.99196898 ] } },
{ "type": "Feature", "properties": { "x": 11776829.68, "y": 2390005.68, "spatialReferenceWkid": 102100, "order": 8, "station": "Phung Khoang", "line": "2A", "long": 105.793061, "lat": 20.98429204, "objectId": 6, "GlobalID": "Phung Khoang" }, "geometry": { "type": "Point", "coordinates": [ 105.793061, 20.98429204 ] } },
{ "type": "Feature", "properties": { "x": 11775917.19, "y": 2389230.6, "spatialReferenceWkid": 102100, "order": 9, "station": "Van Quan", "line": "2A", "long": 105.784864, "lat": 20.97779101, "objectId": 7, "GlobalID": "Van Quan" }, "geometry": { "type": "Point", "coordinates": [ 105.784864, 20.97779101 ] } },
{ "type": "Feature", "properties": { "x": 11774808.45, "y": 2388322.39, "spatialReferenceWkid": 102100, "order": 10, "station": "Ha Dong", "line": "2A", "long": 105.774904, "lat": 20.97017298, "objectId": 8, "GlobalID": "Ha Dong" }, "geometry": { "type": "Point", "coordinates": [ 105.774904, 20.97017298 ] } },
{ "type": "Feature", "properties": { "x": 11773905.76, "y": 2387563.24, "spatialReferenceWkid": 102100, "order": 11, "station": "La Khe", "line": "2A", "long": 105.766795, "lat": 20.96380497, "objectId": 9, "GlobalID": "La Khe" }, "geometry": { "type": "Point", "coordinates": [ 105.766795, 20.96380497 ] } },
{ "type": "Feature", "properties": { "x": 11772728.5, "y": 2386588.86, "spatialReferenceWkid": 102100, "order": 12, "station": "Van Khe", "line": "2A", "long": 105.7562195, "lat": 20.95563111, "objectId": 10, "GlobalID": "Van Khe" }, "geometry": { "type": "Point", "coordinates": [ 105.7562195, 20.95563111 ] } },
{ "type": "Feature", "properties": { "x": 11771820.43, "y": 2385861.71, "spatialReferenceWkid": 102100, "order": 13, "station": "Yen Nghia", "line": "2A", "long": 105.7480621, "lat": 20.94953099, "objectId": 11, "GlobalID": "Yen Nghia" }, "geometry": { "type": "Point", "coordinates": [ 105.7480621, 20.94953099 ] } }
]
}
